City,ID,Lat,Lon,Temp,Humidity,Cloudiness,Wind Speed
Orange,5379524,33.7,-117.77,78.73,39,40,4.7
Nowy Targ,763523,49.48,20.03,44.2,87,75,5.82
Salalah,286621,17.02,54.09,73.4,46,0,4.7
Nome,5870133,64.5,-165.41,21.92,79,1,4.38
Lázaro Cárdenas,4026082,17.96,-102.2,82.26,75,1,6.35
Kaitangata,2208248,-46.28,169.85,55.0,68,58,8.01
Kargasok,1504382,59.06,80.86,28.89,96,96,11.86
Inhambane,1045114,-23.86,35.38,72.18,73,31,6.93
Fortuna,5563839,40.6,-124.16,61.41,67,1,10.29
Laives,6535956,46.42,11.33,45.34,78,23,1.99
Kroya,1639337,-7.63,109.25,78.85,84,79,3.49
Chui,3443061,-33.7,-53.46,53.46,82,0,5.77
Atuona,4020109,-9.8,-139.03,77.59,78,73,14.41
Thinadhoo,1337610,0.53,72.93,83.14,74,98,8.52
Āstāneh-ye Ashrafīyeh,142679,37.26,49.94,64.42,61,0,0.63
Airai,1651810,-8.93,125.41,73.33,53,72,3.71
Vanimo,2084442,-2.67,141.3,85.91,63,99,5.97
Seoul,1835848,37.57,126.98,43.52,100,1,3.85
Kalmunai,1242110,7.42,81.82,78.1,80,46,5.82
Portland,5746545,45.52,-122.68,63.16,39,1,11.41
Bandarbeyla,64814,9.49,50.81,76.44,77,0,18.28
Aquiraz,3407407,-3.9,-38.39,80.6,83,40,10.29
Henties Bay,3356832,-22.12,14.28,55.0,90,31,1.01
Arrondissement de Saint-Denis,2980915,48.92,2.33,64.44,82,90,19.46
Paamiut,3421193,61.99,-49.67,25.5,94,89,6.31
Berlevåg,780687,70.86,29.09,37.4,84,0,14.99
Marfino,529368,55.7,37.38,39.4,100,90,8.95
Biguaçu,3470003,-27.49,-48.66,62.82,72,20,4.7
Pervomayskiy,510911,53.25,40.29,44.47,88,88,9.26
Saint-Ambroise,6137381,48.55,-71.33,36.93,86,100,4.7
Saint-Philippe,935215,-21.36,55.77,67.33,60,90,8.05
Nanortalik,3421765,60.14,-45.24,31.93,86,0,40.58
Bambanglipuro,1650434,-7.95,110.28,79.3,78,78,5.03
Burnie,2173125,-41.07,145.92,57.99,73,99,8.01
Biak,1637001,-0.91,122.88,82.09,68,100,5.99
Qaanaaq,3831208,77.48,-69.36,2.82,74,0,6.69
Puerto Madero,3520989,14.72,-92.42,84.2,83,40,4.7
Aykhal,2027296,66.0,111.5,6.8,84,90,8.95
Tuatapere,2180815,-46.13,167.68,55.0,62,47,13.0
Danville,4755280,36.59,-79.39,57.2,76,1,5.82
Saint Paul,5045360,44.94,-93.09,34.2,34,1,12.75
Maputo,1040652,-25.97,32.59,68.0,94,40,8.05
Nikolskoye,546105,59.7,30.79,32.92,100,90,6.71
Urengoy,1488414,65.97,78.37,24.53,97,96,16.64
Charters Towers,2171722,-20.1,146.27,85.73,38,0,11.39
Poltavka,1494500,54.37,71.76,34.7,87,60,11.23
Herat Province,1140025,34.5,62.0,43.7,61,0,1.54
Saint George,5546220,37.1,-113.58,80.49,9,1,3.36
Bluff,2206939,-46.6,168.33,55.0,62,85,13.0
Hofn,2630299,64.25,-15.21,36.99,74,0,17.76
Constitución,3893726,-35.33,-72.42,52.34,90,54,6.29
Grindavik,3416888,63.84,-22.43,35.6,76,90,5.82
Guerrero Negro,4021858,27.98,-114.06,75.79,46,13,12.62
Mattawa,5802636,46.74,-119.9,59.0,30,1,4.7
Upernavik,3418910,72.79,-56.15,16.45,92,97,3.29
Aswān,359792,24.09,32.91,70.45,53,19,7.78
Ahipara,2194098,-35.17,173.17,71.4,65,100,8.1
Caldas Novas,3468100,-17.74,-48.62,68.94,87,11,6.67
Bambous Virieux,1106677,-20.34,57.76,68.95,73,20,8.05
Atocha,3923570,-20.93,-66.23,53.74,32,4,10.69
Lüderitz,3355672,-26.65,15.16,63.54,58,67,10.74
Las Vegas,5506956,36.17,-115.14,82.08,8,1,5.82
Manche,2996268,49.0,-1.17,62.6,93,75,19.46
Castro,3466704,-24.79,-50.01,51.1,94,22,7.87
Drahovo,709630,48.24,23.55,35.6,93,0,4.7
Pimentel,3693584,-6.84,-79.93,64.4,72,0,20.8
Conakry,2422465,9.54,-13.68,81.63,82,6,8.95
Hare Bay,5970873,48.85,-54.01,35.6,74,2,8.05
Selikhino,2017042,50.37,137.5,38.16,78,46,11.39
Onverwacht,3383384,5.58,-55.18,79.75,94,75,5.82
Jōetsu,6825489,37.15,138.24,50.0,87,99,2.71
Nortelândia,3456248,-14.45,-56.8,78.71,63,70,2.73
Bilma,2446796,18.69,12.92,70.3,25,0,6.78
Copiapó,3893656,-27.37,-70.33,57.2,71,20,11.41
Hattiesburg,4429295,31.33,-89.29,67.24,46,1,6.93
Whitehorse,6180550,60.72,-135.05,6.35,65,90,13.87
Puerto Escondido,3520994,15.85,-97.07,80.8,72,0,3.58
Darłowo,3100637,54.42,16.41,54.0,96,95,16.13
Hong Kong,1819729,22.29,114.16,71.94,69,80,7.47
Umm Kaddadah,364933,13.6,26.69,80.28,25,3,21.63
Cabedelo,3404558,-6.98,-34.83,78.8,83,40,9.17
Pringsewu,1630639,-5.36,104.97,77.68,77,74,5.97
Gobabis,3357247,-22.45,18.97,75.81,17,68,15.08
Bhan,1182775,26.56,67.72,68.94,23,0,2.15
Vaini,4032243,-21.2,-175.2,78.8,78,75,10.29
Kiryat Gat,293842,31.61,34.76,68.7,74,100,1.66
Mataura,6201424,-46.19,168.86,55.0,62,57,13.0
Nagato,1899102,34.38,131.2,59.88,87,75,4.7
Gamba,2400547,-2.65,10.0,76.19,91,100,4.16
Berbera,64435,10.44,45.01,78.75,66,0,5.5
Sioux Lookout,6148373,50.1,-91.92,24.8,53,75,9.17
Huarmey,3939168,-10.07,-78.15,62.55,81,99,7.94
Terney,2015352,45.05,136.61,43.34,64,23,11.01
Chilca,3943957,-12.52,-76.74,64.08,77,90,9.17
Örnsköldsvik,2686469,63.29,18.72,46.4,100,100,24.16
Kruisfontein,986717,-34.0,24.73,64.99,81,29,1.99
Egvekinot,4031742,66.32,-179.17,12.09,89,41,1.54
Albany,5106841,42.6,-73.97,40.08,77,98,3.0
Nioki,2311968,-2.72,17.68,71.69,98,100,4.29
San Quintín,3984997,30.48,-115.95,72.99,51,0,9.13
Ixtapa,4004293,20.7,-105.2,84.99,82,8,7.0
Mont-Dore,2140066,-22.28,166.58,87.01,87,73,9.33
Tāndā,1255024,26.55,82.65,67.89,39,0,5.28
Jinchang,1805733,38.5,102.17,36.12,68,4,1.28
Mīnāb,123941,27.15,57.08,68.0,72,0,6.93
Turaif,101312,31.67,38.66,59.0,100,75,14.99
Meulaboh,1214488,4.14,96.13,76.15,89,100,2.66
Erice,2524815,38.04,12.59,62.4,87,0,2.24
Türkan,584792,40.36,50.22,55.4,100,20,4.7
Kloulklubed,7671223,7.04,134.26,80.6,94,75,4.7
Nishihara,1855342,26.18,127.76,74.14,83,20,3.36
Nesna,3144661,66.2,13.02,47.19,76,100,26.96
Kuala Terengganu,1734705,5.33,103.14,77.0,94,40,4.7
Kangāvar,128831,34.5,47.97,44.64,52,44,0.92
Moussoro,2427336,13.64,16.49,80.69,20,41,13.24
Bluefields,3620680,12.01,-83.76,78.8,94,75,4.7
Praia da Vitória,3372760,38.73,-27.07,62.19,93,75,12.57
Ostrovnoy,556268,68.05,39.51,38.53,92,100,22.44
Arman',2127060,59.7,150.17,31.84,95,100,6.49
Huilong,1806840,31.81,121.66,63.34,89,100,7.63
Saldanha,3361934,-33.01,17.94,64.4,68,0,4.7
Nadym,1498087,65.53,72.52,24.49,96,62,16.8
Aljezur,2271968,37.32,-8.8,63.23,88,82,6.11
Sola,2134814,-13.88,167.55,81.03,83,67,18.79
Ancud,3899695,-41.87,-73.82,56.16,82,60,6.93
Arrondissement d'Ajaccio,3038333,42.0,8.92,59.0,87,90,5.82
Kuah,1222396,6.33,99.84,77.0,94,20,2.24
Nara,1855612,34.69,135.8,63.1,72,75,3.36
Rocha,3440777,-34.48,-54.33,49.93,86,0,2.48
Consolación del Sur,3563559,22.5,-83.51,75.47,92,63,7.29
Phalombe,924206,-15.81,35.65,66.58,89,19,2.35
Madimba,878141,-10.4,40.33,75.54,81,98,4.97
Bachaquero,3648698,9.97,-71.15,82.18,73,69,4.9
Provideniya,4031574,64.38,-173.3,23.0,67,0,4.47
Sitka,5557293,57.05,-135.33,46.4,93,90,13.87
Caravelas,3466980,-17.71,-39.25,71.46,83,100,9.22
Narsaq,3421719,60.92,-46.05,21.2,73,0,5.82
Rodrigues Alves,3665210,-7.74,-72.65,86.0,62,75,2.24
Rome,5134295,43.21,-75.46,40.82,75,90,6.93
Broken Hill,2173911,-31.95,141.43,75.2,44,0,10.29
Lansing,4998830,42.73,-84.56,32.22,89,40,19.46
Zapolyarnyy,464790,69.42,30.81,39.2,93,90,31.09
Sørland,3137469,67.67,12.69,50.77,75,100,26.8
Cidreira,3466165,-30.18,-50.21,62.26,66,13,6.96
Haines Junction,5969025,60.75,-137.51,12.2,66,100,4.7
Alamogordo,5454627,32.9,-105.96,67.24,19,1,6.93
Maragogi,3395458,-9.01,-35.22,77.27,83,19,10.0
Douentza,2458334,15.0,-2.95,78.3,17,0,3.71
Ayan,2027316,56.45,138.17,27.09,98,100,21.85
Antofagasta,3899539,-23.65,-70.4,60.8,72,75,17.22
Rūdbār,1128239,30.15,62.6,48.27,51,0,1.36
Doha,290030,25.29,51.53,75.54,61,0,3.36
Payo,1638775,-3.75,103.64,74.14,87,94,1.16
Lososina,2123688,49.0,140.31,45.03,68,85,5.73
Raglan,2183854,-37.8,174.88,71.01,59,100,7.0
Birin,1283334,26.89,88.07,56.05,100,45,2.57
Oleksandrivka,698627,48.96,32.23,45.61,90,99,11.45
Orsha,624079,54.52,30.41,41.04,89,95,6.51
Ugoofaaru,1337619,5.67,73.0,81.99,71,51,5.48
Longyearbyen,2729907,78.22,15.64,35.6,69,0,31.09
Mauá,3457381,-23.67,-46.46,56.28,82,90,8.05
St. George's,3579925,12.06,-61.75,78.8,88,75,18.34
Gerāsh,133595,27.67,54.14,56.16,37,0,1.28
Alice Springs,2077895,-23.7,133.88,82.4,14,0,13.87
Caculé,3468349,-14.5,-42.22,71.64,88,100,4.21
Souillac,933995,-20.52,57.52,69.8,73,20,8.05
Los Llanos de Aridane,2514651,28.66,-17.92,73.4,28,0,8.05
Lavrentiya,4031637,65.58,-171.0,22.96,87,11,4.79
Nybro,2687902,56.74,15.91,52.27,100,100,18.34
Butaritari,2110227,3.07,172.79,82.11,76,32,9.24
Challapata,3921355,-18.9,-66.77,56.5,29,8,2.57
Cockburn Town,3576994,21.46,-71.14,82.4,69,40,11.41
Taoudenni,2450173,22.68,-3.98,78.69,18,94,16.84
Nemuro,2128975,43.32,145.57,57.22,87,93,24.67
Mahébourg,934322,-20.41,57.7,69.8,73,20,8.05
Malbork,3092472,54.04,19.03,46.35,100,86,11.3
Kinkala,2258984,-4.36,14.76,73.4,94,75,3.36
Vuktyl,470905,63.86,57.31,24.58,98,58,7.14
Mersing,1732826,2.43,103.84,73.4,100,100,3.36
Poum,2138555,-20.23,164.02,79.03,76,1,14.32
Luancheng,1802204,37.88,114.65,42.8,45,0,4.47
Korostyshiv,704885,50.32,29.06,43.84,88,100,9.64
Cabra,2520645,37.47,-4.44,57.78,76,0,1.12
Saint Paul Harbor,5866583,57.79,-152.41,30.2,42,90,16.11
La Tuque,6050416,47.43,-72.78,37.4,93,100,4.7
Sal Rei,3374235,16.18,-22.92,77.0,83,75,10.29
Nadvoitsy,523662,63.87,34.32,32.18,95,66,9.42
Tiksi,2015306,71.69,128.87,-5.01,90,0,6.96
Lakes Entrance,2160735,-37.88,147.98,69.03,56,90,8.25
Tura,1254046,25.52,90.22,68.25,96,97,1.86
Buchanan,2278158,5.88,-10.05,77.77,89,58,6.13
Esperance,2071860,-33.87,121.9,66.2,93,99,13.87
Bowen,2174444,-20.02,148.23,84.2,58,40,8.05
Izsák,3051016,46.8,19.35,48.09,93,90,6.93
Ouadda,236901,8.08,22.4,68.18,87,97,1.1
Gus-Zheleznyy,557754,55.06,41.17,42.28,95,100,5.82
Chabahar,1161724,25.29,60.64,64.4,82,0,3.96
Novobirilyussy,1508260,56.95,90.67,33.76,91,100,9.78
Atar,2381334,20.52,-13.05,80.94,18,100,6.49
Margate,2643044,51.38,1.39,62.56,90,100,4.0
New Norfolk,2155415,-42.78,147.06,66.67,47,98,3.0
Kavaratti,1267390,10.57,72.64,80.92,72,0,2.84
Güicán,3681222,6.46,-72.41,48.11,82,100,4.34
Mbaïki,2384770,3.87,17.99,71.73,89,94,0.78
La Rioja,3336897,42.25,-2.5,54.55,93,0,7.63
Bredasdorp,1015776,-34.53,20.04,64.4,82,55,10.29
Ponta do Sol,2264557,32.67,-17.1,68.58,72,40,3.36
San Jerónimo,3929611,-11.95,-75.28,56.32,60,55,2.33
The Valley,3573374,18.22,-63.06,82.56,74,20,18.34
East London,1006984,-33.02,27.91,65.5,82,76,14.72
Torbay,6167817,47.67,-52.73,35.83,74,20,11.41
Olafsvik,3414079,64.89,-23.71,36.52,82,56,16.87
Thompson,6165406,55.74,-97.86,23.0,92,75,6.93
George Town,1735106,5.41,100.34,77.63,94,40,2.24
San Cristobal,3628473,7.77,-72.22,80.6,83,40,2.24
Mount Gambier,2156643,-37.83,140.77,69.8,56,47,8.05
Aleksandrovsk-Sakhalinskiy,2127282,50.9,142.16,44.65,89,100,7.81
Hasaki,2112802,35.73,140.83,61.16,88,75,2.24
Sur,286245,22.57,59.53,70.21,31,0,3.91
Verkhnedneprovskiy,475614,54.98,33.35,41.65,91,100,8.23
Suntar,2015913,62.14,117.63,0.32,92,8,6.69
Orcopampa,3933986,-15.27,-72.34,47.68,57,99,6.35
Ribeira Grande,3372707,38.52,-28.7,64.2,73,88,17.25
Ubari,2219235,26.59,12.78,59.81,55,0,6.22
Takhli,1605912,15.26,100.34,79.0,88,15,3.02
Katsuura,2112309,35.13,140.3,63.41,88,75,4.7
Korla,1529376,41.76,86.15,36.0,56,24,10.0
Bontang,1648186,0.13,117.5,78.67,82,100,9.64
Peleduy,2018069,59.63,112.74,-2.06,88,0,3.4
Mayumba,2399001,-3.43,10.66,76.87,90,100,3.78
Vestmannaeyjar,3412093,63.44,-20.27,38.5,75,1,18.37
Moshkovo,1498389,55.31,83.61,35.6,93,0,8.95
Gijang,1842966,35.24,129.21,55.4,93,75,3.36
Arrondissement de Verdun,2969963,49.25,5.33,62.29,85,100,8.99
Scarborough,2638419,54.28,-0.4,62.01,86,100,11.01
Arlit,2447513,18.74,7.39,72.82,25,70,8.19
San Patricio,4726521,28.02,-97.52,75.96,47,20,10.29
Alihe,2038665,50.57,123.72,15.48,87,100,10.22
Nha Trang,1572151,12.25,109.18,80.6,78,40,6.93
Lithakia,258241,37.72,20.83,57.2,87,20,4.54
Dahra,2508010,36.25,0.85,59.0,77,0,1.77
Yatou,1786855,37.15,122.38,52.61,44,0,5.48
Zhigansk,2012530,66.77,123.37,-0.71,91,88,19.51
Mitsamiouli,921786,-11.38,43.28,76.71,75,96,8.19
Shahreza,417594,32.03,51.88,42.12,62,0,2.08
Bagdarin,2027244,54.43,113.6,6.04,81,0,4.47
Huamachuco,3696509,-7.8,-78.07,50.14,52,90,4.94
Quatre Cocos,1106643,-20.21,57.76,68.86,73,20,8.05
Covilha,2740313,40.29,-7.5,61.0,93,100,2.93
Talnakh,1490256,69.49,88.4,21.2,85,75,8.95
Kaeo,2189343,-35.1,173.78,75.99,72,100,10.0
Abu Samrah,172515,35.3,37.18,58.08,79,79,1.1
Sisimiut,3419842,66.94,-53.67,28.33,91,100,9.13
Havre-St-Pierre,5972291,50.23,-63.6,39.2,86,85,21.05
Avera,4231997,33.19,-82.53,59.49,82,1,5.82
Mackay,2159220,-21.15,149.2,82.63,69,40,10.29
Pevek,2122090,69.7,170.31,14.9,93,98,10.07
Kjøllefjord,779261,70.95,27.35,37.4,84,0,14.99
Saquarema,3448011,-22.92,-42.51,69.8,64,40,6.93
Nizhniy Odes,520552,63.64,54.86,27.66,95,86,7.99
Lebu,3883457,-37.62,-73.65,52.7,95,74,4.03
Te Anau,2181625,-45.42,167.72,57.65,44,81,1.16
Talavera,1684019,15.62,120.93,75.2,94,90,11.41
Iralaya,3608828,15.0,-83.23,80.26,87,81,11.77
Peniche,2264923,39.36,-9.38,65.37,91,95,3.0
Pangnirtung,6096551,66.15,-65.71,9.55,85,88,3.78
Oodweyne,53372,9.41,45.06,69.44,23,0,12.75
Mochalishche,525961,56.33,48.35,33.8,100,90,8.95
Mehrān,124291,33.12,46.16,57.2,24,0,4.7
Santa Cruz de la Sierra,3904906,-17.8,-63.17,83.5,25,10,9.17
Haimen,1809062,23.19,116.61,66.2,93,0,7.38
Mana,3381041,5.66,-53.78,81.25,79,93,10.42
Sovetskiy,1491230,61.36,63.58,26.56,96,19,7.78
Deputatsky,2028164,69.3,139.9,-15.59,88,56,6.35
Walvis Bay,3359638,-22.96,14.51,54.25,87,65,9.17
Tiarei,4033356,-17.53,-149.33,82.4,74,20,11.41
Kidal,2455290,18.44,1.41,74.82,22,22,12.1
Verkhnyaya Inta,1487332,65.98,60.31,25.77,97,100,14.43
Cherskiy,2126199,68.75,161.3,2.19,93,99,5.41
Saint-Paul-lès-Dax,2977648,43.73,-1.05,60.19,87,49,3.36
Tegul'det,1489822,57.31,88.17,34.7,96,100,11.59
Saint-François,2980080,46.42,3.91,64.22,68,90,4.7
Fonte Boa,6319315,-2.5,-66.27,75.42,87,5,1.92
Bingöl,321082,38.88,40.49,53.29,43,97,4.21
Tignère,2221513,7.37,12.65,68.0,51,59,1.41
Narganá,3703946,9.44,-78.59,79.57,82,99,18.19
Enterprise,5503766,36.03,-115.24,81.07,7,75,4.7
Casper,5820705,42.87,-106.31,62.8,15,1,13.87
Acapulco de Juárez,3533462,16.86,-99.89,81.99,75,93,6.98
Yantzaza,3650053,-3.83,-78.76,78.8,41,0,10.29
Lagoa,3372964,39.05,-27.98,62.8,73,96,14.65
Shache,1280037,38.42,77.24,33.13,87,8,3.0
Saint-Pierre,935214,-21.34,55.48,68.41,60,90,8.05
Bubaque,2374583,11.28,-15.83,83.19,78,0,15.01
Karratha,6620339,-20.74,116.85,75.72,59,97,11.86
Kavieng,2094342,-2.57,150.8,86.58,64,1,4.99
Saskylakh,2017155,71.92,114.08,-10.08,88,74,10.47
Malazgirt,304916,39.14,42.54,48.25,51,70,4.34
Mabaruma,3377301,8.2,-59.78,77.23,86,99,3.38
Wembley,2058682,-31.93,115.8,60.03,87,75,8.05
Hambantota,1244926,6.12,81.12,78.85,81,91,5.01
Troitskoye,1489209,52.98,84.68,29.59,96,10,7.11
Khovd,1516048,48.01,91.64,24.51,90,4,1.14
Evanston,4891382,42.04,-87.69,37.87,38,20,17.22
Marzuq,72181,14.4,46.47,58.86,34,0,2.24
Palmer,4946620,42.16,-72.33,48.11,100,90,4.7
Punta Arenas,3874787,-53.15,-70.92,53.6,76,0,8.05
Labuhan,8079926,-6.88,112.21,79.27,82,93,7.38
Geraldton,2070998,-28.77,114.6,57.2,93,75,8.05
Lerwick,2644605,60.15,-1.15,51.8,71,83,32.21
Zeya,2012593,53.75,127.27,18.12,87,100,9.51
Qaqortoq,3420846,60.72,-46.03,21.2,73,0,5.82
Adrar,2381972,20.5,-10.07,78.78,17,100,9.86
Matamoros,3996426,25.53,-103.25,71.42,25,0,17.67
Māngrol,1263752,21.12,70.12,78.17,35,47,11.34
Necochea,3430443,-38.55,-58.74,64.0,53,28,11.99
High Level,5975004,58.52,-117.14,33.8,86,75,12.75
Erenhot,2037485,43.65,111.98,22.15,74,0,10.2
Port Hedland,2063042,-20.32,118.57,78.8,65,40,13.87
Kaliua,158514,-5.06,31.79,73.56,43,72,3.13
São João da Barra,3448903,-21.64,-41.05,68.56,78,92,15.1
Ode,2328090,7.79,5.71,71.53,91,82,4.5
Departamento de Maldonado,3441890,-34.67,-54.92,57.97,82,0,1.72
Pasni,1168312,25.26,63.47,72.9,25,0,12.71
Makat,608872,47.65,53.35,52.74,42,89,10.96
Isla Vista,5359864,34.41,-119.86,75.65,49,75,6.93
Codrington,2171099,-38.27,141.97,69.21,69,67,7.72
Porto Walter,3662761,-8.27,-72.74,79.23,66,95,2.17
Salym,1493162,60.06,71.48,27.3,98,78,7.38
Mayo,4362001,38.89,-76.51,56.08,93,20,6.93
Dingle,1714733,11.0,122.67,81.28,83,98,9.4
Tarakan,1624725,3.3,117.63,77.56,86,100,5.06
Lappeenranta,648900,61.06,28.19,35.78,100,90,8.05
Chegdomyn,2025579,51.12,133.02,32.31,92,98,1.66
La Ronge,6050066,55.1,-105.28,41.0,75,95,4.7
Beringovskiy,2126710,63.05,179.32,24.48,94,100,2.59
Nanaimo,6085772,49.17,-123.94,53.13,76,52,1.12
Juba,373303,4.85,31.58,74.35,81,84,2.57
Dordrecht,2756669,51.81,4.67,63.18,94,100,11.01
Terrasini,2522952,38.15,13.08,61.09,82,0,2.24
Moses Lake,5803990,47.13,-119.28,61.83,33,1,5.82
Howard Springs,6301965,-12.5,131.05,89.33,62,20,2.24
Georgiyevka,1524243,43.04,74.71,37.4,51,51,4.47
Ust'-Karsk,2013942,52.7,118.81,15.75,73,100,9.46
Parry Sound,6098747,45.35,-80.03,35.6,87,98,11.1
Bengkulu,1649150,-3.8,102.27,76.95,86,99,4.61
Gold Coast,2165087,-28.0,153.43,77.54,50,40,17.22
Port Blair,1259385,11.67,92.75,79.66,78,41,2.66
Jamestown,5122534,42.1,-79.24,31.86,92,90,16.11
Bonthe,2409914,7.53,-12.51,79.2,87,0,5.7
Maceió,3395981,-9.67,-35.74,77.0,88,0,9.17
Flinders,6255012,-34.58,150.86,66.99,70,75,4.0
Porto-Novo,2392087,6.5,2.6,78.85,89,21,9.19
Kastraki,260780,39.72,21.62,42.01,92,47,1.83
La Cruz,4002745,23.92,-106.9,80.02,68,22,7.2
Wasilla,5877641,61.58,-149.44,18.9,44,1,17.22
Rikitea,4030556,-23.12,-134.97,74.37,85,88,23.13
Bilibino,2126682,68.05,166.44,9.46,93,97,1.36
Tucumã,3385980,-0.18,-50.05,80.46,79,15,9.15
Oktyabr'skiy,515879,54.48,53.47,31.23,97,0,3.2
Ballina,2177069,-28.87,153.57,72.99,64,40,19.46
Lucea,3489657,18.45,-78.17,81.34,83,75,11.41
Avarua,4035715,-21.21,-159.78,78.8,88,73,17.22
Norman Wells,6089245,65.28,-126.83,6.8,71,75,10.29
Kanhangad,1268015,12.31,75.11,77.0,94,40,3.36
Ukiah,5404476,39.15,-123.21,80.78,10,1,5.82
Hithadhoo,1282256,-0.6,73.08,83.48,73,100,8.37
Opuwo,3354077,-18.06,13.84,67.3,35,13,3.4
Clyde River,5924351,70.47,-68.59,10.4,85,20,5.82
Capaci,2525392,38.17,13.24,59.7,82,0,2.24
Iqaluit,5983720,63.75,-68.51,12.2,85,90,4.7
Comodoro Rivadavia,3860443,-45.87,-67.5,73.4,56,0,1.12
Teahupoo,4033543,-17.83,-149.27,82.4,74,20,11.41
Sinnamary,3380290,5.38,-52.95,81.03,80,82,10.27
Tumpat,1736356,6.2,102.17,77.0,100,40,3.36
Manono,209598,-7.3,27.42,70.39,81,35,1.9
Bonavista,5905393,48.65,-53.11,35.76,74,3,8.05
Águia Branca,3472820,-18.98,-40.74,67.23,90,99,3.38
Natá,3703938,8.33,-80.52,77.0,94,90,4.7
Prince Rupert,6113406,54.32,-130.32,54.28,76,90,18.34
Broome,5110365,42.25,-75.83,36.52,93,40,5.82
Inuvik,5983607,68.35,-133.72,9.52,85,98,1.12
Khatanga,2022572,71.97,102.5,5.16,95,98,5.91
Shangrao,1787858,28.45,117.97,60.76,87,100,0.98
Waipawa,2206874,-41.41,175.52,57.34,87,100,11.41
Russell,4047434,32.35,-85.2,63.73,63,1,9.17
Sirte,2210554,31.21,16.59,70.05,60,8,8.01
Manjacaze,1040938,-24.71,33.88,66.07,88,91,1.72
Port Alfred,964432,-33.59,26.89,64.51,85,29,17.45
Shingū,1847947,33.73,135.98,69.8,68,75,4.7
Kerman,128234,30.28,57.08,37.4,29,0,4.7
Ilulissat,3423146,69.22,-51.1,17.6,72,100,5.82
Boyolangu,1648082,-8.12,111.89,78.22,80,92,2.35
Les Cayes,3728097,18.2,-73.75,79.9,80,84,8.25
Barrow,5880054,71.29,-156.79,28.4,68,75,18.34
Sukhumi,611847,43.0,41.02,59.04,75,100,7.14
Antón Lizardo,3532821,19.05,-95.98,79.0,52,69,21.99
Montes Altos,3394539,-5.83,-47.07,81.82,54,67,2.91
Arcos,3471683,-20.28,-45.54,64.02,78,41,12.19
Tazovsky,1489853,67.47,78.7,21.22,97,99,15.14
Srandakan,1626493,-7.94,110.25,79.29,79,78,5.12
Bulawayo,894701,-20.15,28.58,64.29,66,99,12.46
Marshall,4074736,34.38,-86.33,60.8,36,1,12.75
Oussouye,2246901,12.48,-16.55,79.72,94,0,2.24
Turukhansk,1488903,65.82,87.98,21.72,98,100,10.83
Vilyuysk,2013392,63.76,121.62,-1.98,91,8,7.54
Kahului,5847411,20.89,-156.47,81.82,55,40,14.99
Opoczno,763111,51.38,20.28,46.99,10,82,55.99
Bahía Blanca,3865086,-38.72,-62.27,68.22,37,19,11.41
Yovon,1220112,38.31,69.04,39.2,51,98,2.24
Pendleton,5745380,45.67,-118.79,54.75,43,1,10.29
Honiara,2108502,-9.43,159.95,87.8,74,20,6.93
Lahat,1638775,-3.8,103.53,74.77,81,92,1.16
Gangānagar,1271685,29.92,73.88,62.29,27,0,1.74
Bathsheba,3374083,13.22,-59.52,82.4,78,75,23.04
Faanui,4034551,-16.48,-151.75,80.29,80,24,21.72
Cabo San Lucas,3985710,22.89,-109.91,82.83,43,25,1.99
Hobart,2163355,-42.88,147.33,66.02,63,75,10.29
Chokurdakh,2126123,70.63,147.92,-0.26,94,100,11.03
Pimenta Bueno,3924908,-11.67,-61.19,78.49,76,98,4.9
Ipixuna,3408424,-1.76,-48.8,78.8,83,0,8.05
Fergus Falls,5026416,46.28,-96.08,30.34,68,1,5.82
Ritchie,961226,-29.04,24.6,55.4,87,0,8.05
Westport,4845585,41.14,-73.36,53.64,93,90,8.05
Lieksa,648090,63.32,30.02,39.72,85,99,15.66
Bataiporã,3470338,-22.3,-53.27,68.36,64,43,3.31
Cayenne,3382160,4.93,-52.33,78.8,100,97,3.36
Coyhaique,3894426,-45.58,-72.07,69.8,26,0,3.36
Taltal,3870243,-25.4,-70.48,59.23,69,22,4.47
Dikson,1507390,73.51,80.55,18.37,98,99,8.57
Kouango,2385535,4.99,19.96,70.38,91,77,1.39
Eenhana,3357804,-17.47,16.33,84.2,38,44,6.93
Nyurba,2018735,63.28,118.33,0.79,92,48,9.4
Hermanus,3366880,-34.42,19.23,64.0,82,20,7.0
Arraial do Cabo,3471451,-22.97,-42.03,69.01,74,77,16.78
Alofi,4036284,-19.06,-169.92,82.4,74,75,19.46
Baculin,1729469,7.45,126.58,84.83,62,95,1.79
Srednekolymsk,2121025,67.45,153.68,-2.85,91,100,7.16
Mahon,2514301,39.89,4.27,64.4,82,3,9.17
Mossamedes,3347019,-15.2,12.15,71.98,73,46,6.51
Concordia,3435261,-31.39,-58.02,71.6,46,0,6.93
Russellville,4129397,35.28,-93.13,64.4,20,1,4.7
Bangui,2389853,4.36,18.55,75.2,83,0,1.16
Oshnavīyeh,121795,37.04,45.1,53.6,46,75,4.7
Bukachacha,2026023,52.98,116.92,11.21,86,61,4.9
Port Macquarie,2152659,-31.43,152.92,64.4,88,75,12.75
Barquisimeto,3648522,10.07,-69.32,62.6,100,43,5.82
Ust-Tsilma,477940,65.44,52.15,29.75,97,96,8.43
Tasiilaq,3424607,65.61,-37.64,28.4,86,60,8.05
Raudeberg,3146487,61.99,5.14,46.99,86,98,23.26
Petropavlovsk-Kamchatskiy,2122104,53.05,158.65,35.6,64,4,6.71
Pokhara,1282898,28.23,83.98,65.71,41,11,4.9
Sivaki,2016477,52.63,126.75,15.82,96,100,14.61
Kysyl-Syr,2021017,63.9,122.76,-2.2,91,40,6.96
Port Elizabeth,964420,-33.92,25.57,64.4,88,0,10.29
Sahuaripa,3988265,29.05,-109.23,90.72,14,8,8.12
